City_ID,City,Lat,Lng,Max Temp,Humidity,Cloudiness,Wind Speed,Country,Date
0,ushuaia,-54.8,-68.3,6.81,53,20,4.12,AR,1680213526
1,conde,-7.2597,-34.9075,25.7,83,0,3.6,BR,1680213537
2,ancud,-41.8697,-73.8203,10.87,66,87,1.86,CL,1680213538
3,acapulco,16.8634,-99.8901,29.9,66,75,5.66,MX,1680213538
4,rikitea,-23.1203,-134.9692,26.19,72,94,2.15,PF,1680213355
5,fortuna,40.5982,-124.1573,12.18,69,25,2.24,US,1680213538
6,cayenne,4.9333,-52.3333,27.02,83,75,3.09,GF,1680213538
7,cape town,-33.9258,18.4232,17.29,79,20,7.2,ZA,1680213279
8,yantai,37.5333,121.4,9.04,38,0,3.41,CN,1680213539
9,klaksvik,62.2266,-6.589,8.51,98,100,12.96,FO,1680213539
10,cairns,-16.9167,145.7667,25.97,89,15,1.54,AU,1680213300
11,vaini,-21.2,-175.2,28.09,74,75,3.6,TO,1680213539
12,hermanus,-34.4187,19.2345,12.67,83,51,2.53,ZA,1680213539
13,gazimurskiy zavod,51.5461,118.3266,-1.86,92,12,2.2,RU,1680213539
14,ponta do sol,32.6667,-17.1,22.85,28,11,1.96,PT,1680213539
15,avarua,-21.2078,-159.775,29.03,84,40,5.66,CK,1680213540
16,lakki marwat,32.6079,70.9114,18.16,66,100,2.32,PK,1680213540
17,bathsheba,13.2167,-59.5167,27.34,65,40,9.26,BB,1680213540
18,hilo,19.7297,-155.09,25.56,85,100,5.14,US,1680213473
19,qazvin,36.2797,50.0049,14.87,30,0,2.83,IR,1680213540
20,ugoofaaru,5.6667,73.0,27.64,73,71,3.36,MV,1680213541
21,meadow lake,34.8014,-106.5436,20.48,9,21,16.95,US,1680213541
22,esperance,-33.8667,121.9,14.58,82,18,4.67,AU,1680213526
23,souillac,-20.5167,57.5167,27.21,89,40,5.14,MU,1680213541
24,ribeira grande,38.5167,-28.7,15.43,87,100,1.79,PT,1680213541
25,mount gambier,-37.8333,140.7667,13.63,83,94,2.12,AU,1680213541
26,san quintin,30.4833,-115.95,15.19,58,5,6.83,MX,1680213542
27,mataura,-46.1927,168.8643,13.04,75,33,1.75,NZ,1680213542
28,albany,42.6001,-73.9662,3.86,35,52,0.45,US,1680213401
29,nanortalik,60.1432,-45.2371,-5.67,83,3,2.33,GL,1680213542
30,qaanaaq,77.484,-69.3632,-23.62,67,21,2.12,GL,1680213542
31,cockburn town,21.4612,-71.1419,25.63,71,1,5.51,TC,1680213438
32,zaysan,47.4667,84.8667,-1.45,58,13,3.85,KZ,1680213542
33,komatipoort,-25.4332,31.9548,22.25,92,100,2.37,ZA,1680213542
34,dingle,10.9995,122.6711,24.08,91,91,2.97,PH,1680213543
35,santa catarina de tepehuanes,25.35,-105.7333,24.46,14,94,11.29,MX,1680213543
36,nimaparha,20.0667,86.0167,27.22,85,7,6.08,IN,1680213543
37,adrar,20.5022,-10.0711,27.91,9,0,7.91,MR,1680213543
38,san patricio,28.017,-97.5169,27.32,72,100,9.62,US,1680213544
39,codrington,-38.2667,141.9667,14.18,74,100,2.98,AU,1680213544
40,muros,42.7762,-9.0603,16.72,85,100,8.68,ES,1680213544
41,tasiilaq,65.6145,-37.6368,-2.98,96,100,3.3,GL,1680213544
42,te anau,-45.4167,167.7167,10.56,69,83,0.22,NZ,1680213544
43,georgetown,5.4112,100.3354,26.96,94,20,1.03,MY,1680213385
44,tautira,-17.7333,-149.15,26.73,75,91,2.02,PF,1680213544
45,port lincoln,-34.7333,135.8667,15.92,78,69,2.76,AU,1680213544
46,punta arenas,-53.15,-70.9167,9.06,49,0,9.77,CL,1680213334
47,diapaga,12.0708,1.7889,30.14,11,54,2.89,BF,1680213545
48,chabahar,25.2919,60.643,24.03,72,0,5.07,IR,1680213545
49,cabo san lucas,22.8909,-109.9124,29.78,46,99,4.36,MX,1680213539
50,nandurbar,21.3667,74.25,23.07,74,8,6.02,IN,1680213545
51,bluff,-46.6,168.3333,13.22,84,37,2.9,NZ,1680213545
52,pisco,-13.7,-76.2167,26.03,69,75,4.63,PE,1680213288
53,busselton,-33.65,115.3333,17.35,76,100,5.73,AU,1680213545
54,hithadhoo,-0.6,73.0833,27.86,76,12,4.11,MV,1680213534
55,cherskiy,68.75,161.3,-10.27,93,98,3.66,RU,1680213545
56,lompoc,34.6391,-120.4579,17.05,67,20,8.05,US,1680213545
57,shuya,56.8487,41.3883,3.78,98,100,2.95,RU,1680213545
58,port alfred,-33.5906,26.891,15.1,85,42,1.34,ZA,1680213524
59,east london,-33.0153,27.9116,17.22,79,15,5.06,ZA,1680213546
60,uyemskiy,64.4743,40.8524,-2.97,74,100,3.0,RU,1680213546
61,shenjiamen,29.9576,122.298,10.92,95,100,5.24,CN,1680213546
62,christchurch,-43.5333,172.6333,15.79,78,40,4.12,NZ,1680213396
63,cidreira,-30.1811,-50.2056,23.47,81,100,3.05,BR,1680213546
64,nokaneng,-19.6667,22.2667,23.65,51,48,3.11,BW,1680213546
65,kodiak,57.79,-152.4072,2.73,75,100,8.23,US,1680213547
66,aklavik,68.2191,-135.0107,-11.0,57,20,4.63,CA,1680213547
67,berlevag,70.8578,29.0864,-4.0,86,0,5.66,NO,1680213547
68,maniitsoq,65.4167,-52.9,-10.05,74,0,3.33,GL,1680213547
69,maragogi,-9.0122,-35.2225,25.12,81,4,2.93,BR,1680213547
70,meulaboh,4.1363,96.1285,23.99,88,85,1.87,ID,1680213547
71,mahebourg,-20.4081,57.7,27.16,89,40,5.14,MU,1680213547
72,tuktoyaktuk,69.4541,-133.0374,-17.0,71,0,7.2,CA,1680213547
73,yellowknife,62.456,-114.3525,-10.71,52,20,1.03,CA,1680213547
74,rawson,-43.3002,-65.1023,9.44,78,99,9.42,AR,1680213542
75,malia,35.2833,25.4667,12.12,54,3,2.25,GR,1680213547
76,carnarvon,-24.8667,113.6333,22.74,74,83,3.39,AU,1680213548
77,xinqing,48.2333,129.5,-0.51,47,0,1.02,CN,1680213548
78,hobart,-42.8794,147.3294,13.48,81,75,2.06,AU,1680213338
79,kendari,-3.945,122.4989,23.66,92,100,1.66,ID,1680213548
80,mackay,-21.15,149.2,25.32,84,64,2.6,AU,1680213548
81,perth,-31.9333,115.8333,17.04,95,75,6.69,AU,1680213311
82,butaritari,3.0707,172.7902,27.8,78,79,5.41,KI,1680213548
83,aiquile,-18.2041,-65.1807,17.68,77,84,1.96,BO,1680213548
84,vardo,70.3705,31.1107,-2.87,81,94,9.53,NO,1680213548
85,lebu,-37.6167,-73.65,13.77,75,50,7.47,CL,1680213548
86,jamestown,42.097,-79.2353,5.57,42,0,1.79,US,1680213376
87,kaeo,-35.1,173.7833,16.29,78,10,2.63,NZ,1680213549
88,oranzherei,45.8476,47.5663,5.01,46,100,9.17,RU,1680213549
89,kavieng,-2.5744,150.7967,26.12,81,100,2.37,PG,1680213549
90,yenagoa,4.9247,6.2642,25.82,89,63,1.69,NG,1680213549
91,ajuchitlan,20.7167,-100.0167,27.07,23,100,4.65,MX,1680213549
92,saskylakh,71.9167,114.0833,-33.11,100,89,2.68,RU,1680213550
93,port hedland,-20.3167,118.5667,26.03,94,75,1.54,AU,1680213550
94,bethel,41.3712,-73.414,7.17,30,0,5.66,US,1680213308
95,hindoria,23.9,79.5667,24.45,40,68,4.67,IN,1680213550
96,oxford,51.7522,-1.256,11.06,91,75,9.77,GB,1680213481
97,new norfolk,-42.7826,147.0587,13.84,79,99,1.56,AU,1680213550
98,myitkyina,25.3833,97.4,16.84,67,4,1.07,MM,1680213551
99,kumluca,36.3703,30.2869,9.07,41,0,3.39,TR,1680213551
100,kaitangata,-46.2817,169.8464,13.31,78,90,2.14,NZ,1680213551
101,lorengau,-2.0226,147.2712,26.76,79,98,1.27,PG,1680213551
102,port elizabeth,-33.918,25.5701,17.16,82,0,5.14,ZA,1680213551
103,araouane,18.9048,-3.5265,27.01,8,0,4.99,ML,1680213551
104,bafq,31.6128,55.4107,19.22,20,0,0.88,IR,1680213551
105,iqaluit,63.7506,-68.5145,-16.15,77,20,0.0,CA,1680213551
106,khatanga,71.9667,102.5,-25.57,97,98,3.92,RU,1680213551
107,hwange,-18.3693,26.5019,19.01,78,2,1.29,ZW,1680213552
108,puerto ayora,-0.7393,-90.3518,30.98,88,67,3.58,EC,1680213520
109,green river,41.5286,-109.4662,2.33,79,100,6.33,US,1680213552
110,alofi,-19.0595,-169.9187,28.94,79,40,3.09,NU,1680213552
111,batsfjord,70.6345,29.7185,-7.04,93,20,9.26,NO,1680213552
112,caconda,-13.7333,15.0667,14.9,97,54,1.8,AO,1680213552
113,laguna,38.421,-121.4238,16.27,58,75,2.06,US,1680213552
114,bambous virieux,-20.3428,57.7575,27.14,89,40,5.14,MU,1680213553
115,valparaiso,-33.0393,-71.6273,21.8,53,0,3.09,CL,1680213553
116,nyurba,63.2842,118.3319,-20.04,98,77,2.07,RU,1680213553
117,koroni,36.8,21.95,12.26,75,9,4.61,GR,1680213553
118,rawlins,41.7911,-107.2387,1.31,80,100,7.2,US,1680213440
119,atuona,-9.8,-139.0333,27.08,73,4,6.61,PF,1680213553
120,sorland,67.667,12.6934,1.92,55,86,11.74,NO,1680213553
121,poso,-1.3959,120.7524,24.71,88,100,0.74,ID,1680213554
122,barrow,71.2906,-156.7887,-14.99,78,0,2.06,US,1680213554
123,mar del plata,-38.0023,-57.5575,17.83,73,0,8.23,AR,1680213555
124,davila,18.4726,120.5763,24.99,86,18,3.56,PH,1680213555
125,chuy,-33.6971,-53.4616,19.5,93,100,4.5,UY,1680213555
126,srednekolymsk,67.45,153.6833,-10.55,91,100,2.83,RU,1680213555
127,jalu,29.0331,21.5482,16.03,30,0,3.54,LY,1680213555
128,amlame,7.4667,0.9,25.95,68,72,1.81,TG,1680213555
129,pevek,69.7008,170.3133,-13.81,85,100,4.86,RU,1680213555
130,corinto,37.9407,22.9573,9.94,60,3,1.8,GR,1680213306
131,sinnamary,5.3833,-52.95,25.44,84,68,4.08,GF,1680213556
132,lata,40.1629,-8.3327,12.0,92,100,1.84,PT,1680213556
133,bima,-8.4667,118.7167,23.89,93,100,1.09,ID,1680213556
134,axim,4.8699,-2.2405,26.44,86,100,3.0,GH,1680213556
135,zhangye,38.9342,100.4517,8.62,36,29,2.25,CN,1680213556
136,norman wells,65.282,-126.8329,-8.98,62,40,7.72,CA,1680213556
137,smidovich,48.6,133.8167,0.54,58,0,2.62,RU,1680213556
138,naze,28.3667,129.4833,17.51,88,98,5.55,JP,1680213557
139,chokurdakh,70.6333,147.9167,-20.24,95,100,2.54,RU,1680213557
140,pangody,65.85,74.4859,-26.99,100,33,1.05,RU,1680213557
141,bojnurd,37.4747,57.329,8.97,53,0,1.03,IR,1680213557
142,linhares,-19.3911,-40.0722,24.63,81,40,2.7,BR,1680213557
143,nikolskoye,59.7035,30.7861,-2.06,97,78,1.87,RU,1680213557
144,hambantota,6.1241,81.1185,24.19,100,20,1.54,LK,1680213557
145,buchanan,5.8808,-10.0467,25.7,88,80,2.52,LR,1680213558
146,rio gallegos,-51.6226,-69.2181,10.03,37,0,8.75,AR,1680213558
147,abrau-dyurso,44.69,37.59,2.7,72,100,4.4,RU,1680213558
148,pacific grove,36.6177,-121.9166,14.38,66,40,5.66,US,1680213558
149,chara,56.9064,118.2631,-3.22,82,33,0.84,RU,1680213558
150,trairi,-3.2778,-39.2689,25.47,84,36,2.91,BR,1680213489
151,kieta,-6.2167,155.6333,27.4,78,95,1.92,PG,1680213558
152,tiksi,71.6872,128.8694,-30.51,100,100,2.74,RU,1680213525
153,bredasdorp,-34.5322,20.0403,14.79,84,74,0.4,ZA,1680213558
154,gwadar,25.1216,62.3254,24.12,72,0,5.85,PK,1680213559
155,sawtell,-30.3833,153.1,17.01,67,0,2.57,AU,1680213559
156,port macquarie,-31.4333,152.9167,17.72,55,0,1.97,AU,1680213559
157,hamilton,39.1834,-84.5333,17.35,36,0,4.12,US,1680213559
158,henties bay,-22.116,14.2845,14.37,94,8,1.18,NA,1680213559
159,faanui,-16.4833,-151.75,27.96,73,100,4.5,PF,1680213559
160,leshukonskoye,64.8989,45.7622,0.63,99,100,3.29,RU,1680213559
161,ahuimanu,21.4447,-157.8378,28.21,73,40,7.2,US,1680213559
162,saint-philippe,-21.3585,55.7679,25.77,85,70,4.47,RE,1680213560
163,isangel,-19.55,169.2667,27.06,89,75,0.0,VU,1680213560
164,sur,22.5667,59.5289,24.31,50,0,4.26,OM,1680213560
165,kuytun,54.3419,101.5036,-5.5,81,100,8.19,RU,1680213560
166,kavaratti,10.5669,72.642,27.04,71,39,3.39,IN,1680213560
167,san joaquin,37.9333,-121.3011,16.29,57,75,2.06,US,1680213560
168,katsuura,35.1333,140.3,15.24,79,100,3.11,JP,1680213560
169,acarau,-2.8856,-40.12,25.95,82,25,4.47,BR,1680213561
170,conceicao do araguaia,-8.2578,-49.2647,24.51,87,100,0.75,BR,1680213561
171,viransehir,37.2353,39.7631,4.8,60,75,2.69,TR,1680213561
172,balfour,-26.6633,28.5902,11.98,66,92,2.13,ZA,1680213561
173,kiruna,67.8557,20.2251,-3.49,68,100,11.83,SE,1680213561
174,ambilobe,-13.2,49.05,23.77,95,100,0.89,MG,1680213561
175,banda aceh,5.5577,95.3222,26.17,79,99,1.16,ID,1680213561
176,berdigestyakh,62.0989,126.6992,-8.52,87,82,4.09,RU,1680213561
177,komsomolskiy,40.4272,71.7189,17.51,51,100,1.85,UZ,1680213562
178,petatlan,17.5167,-101.2667,30.75,47,100,3.71,MX,1680213562
179,kaili,-3.4626,120.2147,19.17,95,100,1.07,ID,1680213562
180,xai-xai,-25.0519,33.6442,23.59,87,53,3.61,MZ,1680213562
181,itarema,-2.9248,-39.9167,25.72,82,30,3.99,BR,1680213562
182,yuanping,38.7153,112.7575,10.94,28,100,0.29,CN,1680213565
183,yar-sale,66.8333,70.8333,-18.47,97,99,3.78,RU,1680213519
184,mareeba,-17.0,145.4333,23.58,93,81,0.96,AU,1680213565
185,castro,-24.7911,-50.0119,19.14,87,36,1.48,BR,1680213565
186,tacoronte,28.4769,-16.4102,24.18,21,0,4.12,ES,1680213343
187,lavrentiya,65.5833,-171.0,-7.53,74,100,4.27,RU,1680213566
188,champoton,19.35,-90.7167,30.87,46,0,5.63,MX,1680213566
189,dikson,73.5069,80.5464,-27.3,100,96,3.29,RU,1680213566
190,sturgeon bay,44.8342,-87.377,2.99,64,20,6.69,US,1680213566
191,chumikan,54.7183,135.315,-6.8,94,88,2.59,RU,1680213566
192,banff,51.1762,-115.5698,6.21,28,88,2.06,CA,1680213566
193,corrente,-3.7367,-43.3394,23.39,96,96,1.2,BR,1680213566
194,kruisfontein,-34.0033,24.7314,13.82,95,6,2.42,ZA,1680213566
195,norsup,-16.0667,167.3833,28.39,75,94,2.88,VU,1680213567
196,methana,37.5823,23.3914,14.2,58,4,2.02,GR,1680213567
197,vao,-22.6667,167.4833,25.09,79,16,4.35,NC,1680213567
198,kapaa,22.0752,-159.319,27.33,78,100,6.17,US,1680213567
199,khash,28.2211,61.2158,16.67,39,1,1.03,IR,1680213567
200,bilma,18.6853,12.9164,25.38,12,50,4.48,NE,1680213567
201,lambarene,-0.7001,10.2406,23.56,90,100,0.81,GA,1680213567
202,leningradskiy,69.3833,178.4167,-18.11,91,14,2.75,RU,1680213567
203,fort nelson,58.8053,-122.7002,-0.59,79,100,2.24,CA,1680213567
204,pangnirtung,66.1451,-65.7125,-12.0,67,100,0.0,CA,1680213567
205,moussoro,13.6408,16.4901,30.22,8,21,9.35,TD,1680213325
206,otavi,-19.65,17.3333,22.92,31,69,2.93,NA,1680213568
207,kenai,60.5544,-151.2583,2.05,80,100,2.06,US,1680213568
208,longyearbyen,78.2186,15.6401,-8.38,94,100,1.83,SJ,1680213521
209,san rafael,-34.6177,-68.3301,22.92,22,1,4.33,AR,1680213461
210,cedar city,37.6775,-113.0619,3.54,65,0,5.66,US,1680213568
211,veraval,20.9,70.3667,23.74,85,4,4.54,IN,1680213568
212,salalah,17.0151,54.0924,27.05,61,0,2.06,OM,1680213351
213,leh,34.1667,77.5833,-5.98,67,100,0.64,IN,1680213568
214,nobres,-14.7203,-56.3275,25.87,71,31,0.98,BR,1680213568
215,talnakh,69.4865,88.3972,-28.22,98,68,2.68,RU,1680213525
216,victoria,22.2855,114.1577,21.25,94,100,0.89,HK,1680213512
217,labuhan,-6.8844,112.2051,25.53,86,100,2.86,ID,1680213569
218,baglung,28.2719,83.5898,14.34,49,44,3.04,NP,1680213569
219,dakar,14.6937,-17.4441,23.49,94,0,4.12,SN,1680213539
220,sao jose da coroa grande,-8.8978,-35.1478,25.4,80,5,2.89,BR,1680213569
221,bushehr,28.9684,50.8385,21.05,60,20,3.09,IR,1680213569
222,port-gentil,-0.7193,8.7815,27.71,76,100,4.57,GA,1680213569
223,lar,26.2039,83.9717,25.27,21,98,2.79,IN,1680213569
224,soe,-9.8607,124.284,18.69,96,100,1.56,ID,1680213569
225,altay,47.8667,88.1167,-1.38,90,48,1.12,CN,1680213569
226,greenville,35.6127,-77.3663,19.09,32,0,1.34,US,1680213458
227,auki,-8.7676,160.7034,27.38,77,88,0.79,SB,1680213569
228,mikhaylovka,50.06,43.2379,1.55,79,85,8.8,RU,1680213288
229,chimbote,-9.0853,-78.5783,27.16,70,60,4.6,PE,1680213570
230,virginia beach,36.8529,-75.978,12.24,51,20,4.12,US,1680213539
231,provideniya,64.3833,-173.3,-4.94,54,75,6.0,RU,1680213570
232,tiznit,29.5833,-9.5,24.74,16,3,0.64,MA,1680213570
233,thompson,55.7435,-97.8558,-7.91,41,20,5.14,CA,1680213279
234,baghdad,33.3406,44.4009,14.95,55,0,3.09,IQ,1680213419
235,baoying,33.2292,119.3092,6.14,75,50,1.97,CN,1680213570
236,goure,13.9835,10.2704,25.32,8,64,4.49,NE,1680213570
237,constitucion,-35.3333,-72.4167,17.62,51,75,7.3,CL,1680213571
238,witu,-2.3889,40.4382,29.09,79,2,3.3,KE,1680213571
239,turukhansk,65.8167,87.9833,-29.7,100,82,2.21,RU,1680213571
240,cabinda,-5.55,12.2,27.08,89,40,1.03,AO,1680213571
241,saint anthony,45.0205,-93.218,3.14,66,100,4.12,US,1680213571
242,airai,-8.9266,125.4092,15.52,95,100,1.22,TL,1680213537
243,camacupa,-12.0167,17.4833,16.24,94,100,1.41,AO,1680213571
244,aksarka,66.5606,67.7975,-12.72,96,100,3.19,RU,1680213571
245,vestmannaeyjar,63.4427,-20.2734,5.66,88,100,4.69,IS,1680213572
246,ginda,30.6945,78.4932,11.54,56,100,0.93,IN,1680213566
247,verkhnetulomskiy,68.6073,31.7962,-7.93,92,91,2.97,RU,1680213572
248,roebourne,-20.7833,117.1333,26.86,81,33,1.76,AU,1680213572
249,grants,35.1473,-107.8514,14.13,11,0,10.29,US,1680213572
250,malakal,9.5334,31.6605,30.52,10,15,3.99,SS,1680213572
251,vila,42.0304,-8.1588,9.83,95,100,4.65,PT,1680213572
252,oswego,43.4501,-76.1497,3.62,45,15,3.66,US,1680213572
253,grindavik,63.8424,-22.4338,5.97,93,75,3.09,IS,1680213573
254,segezha,63.7415,34.3222,-11.78,95,47,3.16,RU,1680213573
255,verkhoyansk,67.5447,133.385,-15.62,96,100,2.16,RU,1680213573
256,puerto madryn,-42.7692,-65.0385,9.82,75,81,12.74,AR,1680213573
257,zaidpur,26.8333,81.3333,23.04,29,100,0.98,IN,1680213573
258,pailitas,8.9565,-73.6255,32.96,43,75,2.65,CO,1680213573
259,sibiti,-3.6819,13.3499,20.02,99,100,1.09,CG,1680213573
260,roma,43.2128,-75.4557,2.68,45,0,6.17,US,1680213573
261,vila velha,-20.3297,-40.2925,28.3,76,0,5.66,BR,1680213573
262,yulara,-25.2406,130.9889,20.4,50,82,6.69,AU,1680213573
263,prieska,-29.6641,22.7474,16.97,30,0,4.27,ZA,1680213574
264,wajima,37.4,136.9,11.38,63,99,4.13,JP,1680213574
265,mae sai,20.4335,99.8762,21.27,45,6,1.08,TH,1680213574
266,lingao,19.9103,109.6859,22.69,93,99,1.3,CN,1680213574
267,awjilah,29.1081,21.2869,16.0,30,0,3.29,LY,1680213574
268,santo antonio do leverger,-15.8656,-56.0767,27.21,58,75,1.4,BR,1680213574
269,cururupu,-1.8283,-44.8683,23.98,96,93,1.33,BR,1680213574
270,waipawa,-41.4122,175.5153,12.41,83,97,1.95,NZ,1680213546
271,albion,42.2431,-84.753,8.72,35,0,4.63,US,1680213293
272,issoudun,47.0,1.8333,12.36,82,93,3.09,FR,1680213575
273,council bluffs,41.2619,-95.8608,23.99,41,75,13.38,US,1680213281
274,northam,51.0333,-4.2167,10.9,94,100,11.38,GB,1680213575
275,san andres,12.5847,-81.7006,30.01,58,20,6.69,CO,1680213575
276,hasaki,35.7333,140.8333,11.27,73,97,3.98,JP,1680213575
277,coihaique,-45.5752,-72.0662,10.34,53,20,4.12,CL,1680213575
278,nova olinda do norte,-3.8881,-59.0942,23.33,98,99,1.12,BR,1680213575
279,nanakuli,21.3906,-158.1547,28.35,65,0,6.69,US,1680213575
280,college,64.8569,-147.8028,0.26,48,75,0.0,US,1680213575
281,vila franca do campo,37.7167,-25.4333,16.23,97,100,3.39,PT,1680213423
282,zhigansk,66.7697,123.3711,-18.76,80,100,9.82,RU,1680213575
283,alice springs,-23.7,133.8833,15.75,94,100,4.63,AU,1680213439
284,clyde river,70.4692,-68.5914,-17.87,78,100,2.06,CA,1680213575
285,lahaina,20.8783,-156.6825,29.0,80,51,4.46,US,1680213576
286,abha,18.2164,42.5053,15.9,88,20,4.63,SA,1680213576
287,bilibino,68.0546,166.4372,-11.87,79,100,1.11,RU,1680213576
288,srandakan,-7.9386,110.2506,24.2,89,100,1.58,ID,1680213576
289,zell am see,47.3256,12.7944,6.41,49,100,1.62,AT,1680213576
290,qui nhon,13.7667,109.2333,23.49,90,96,1.95,VN,1680213576
291,arraial do cabo,-22.9661,-42.0278,25.98,83,0,3.6,BR,1680213576
292,grandview,38.8858,-94.533,19.84,56,100,9.26,US,1680213576
293,okahandja,-21.9833,16.9167,16.78,23,0,2.27,NA,1680213576
294,kui buri,12.0828,99.8543,23.82,87,66,2.28,TH,1680213576
295,egvekinot,66.3167,-179.1667,-13.47,84,33,0.65,RU,1680213577
296,omboue,-1.5746,9.2618,25.79,83,100,1.69,GA,1680213577
297,maceio,-9.6658,-35.7353,25.69,88,40,3.09,BR,1680213354
298,krasnogorsk,55.8225,37.3181,0.66,80,100,4.0,RU,1680213577
299,waddan,29.1614,16.139,15.87,27,0,3.42,LY,1680213577
300,vilyuysk,63.7553,121.6247,-16.88,92,53,3.54,RU,1680213577
301,bundibugyo,0.7414,30.0417,19.66,86,73,1.43,UG,1680213577
302,nguruka,-5.1092,31.0419,18.11,96,66,0.61,TZ,1680213577
303,saint george,37.1041,-113.5841,8.86,63,100,10.29,US,1680213388
304,reyes,-14.3167,-67.3833,26.17,91,42,1.16,BO,1680213577
305,qaqortoq,60.7167,-46.0333,-7.4,80,1,0.65,GL,1680213578
306,torbay,47.6666,-52.7314,0.43,77,20,4.12,CA,1680213536
307,husavik,66.0449,-17.3389,1.08,87,93,3.99,IS,1680213578
308,tuatapere,-46.1333,167.6833,11.59,64,20,1.81,NZ,1680213578
309,pucara,-15.9803,-71.4606,4.07,83,87,1.2,PE,1680213578
310,eureka,40.8021,-124.1637,13.19,72,18,2.68,US,1680213534
311,itoman,26.1247,127.6694,22.21,88,75,4.63,JP,1680213578
312,llandrindod wells,52.2416,-3.3787,9.97,98,100,7.06,GB,1680213578
313,ilulissat,69.2167,-51.1,-25.47,90,1,1.07,GL,1680213578
314,ushtobe,45.2514,77.9838,3.04,49,1,8.34,KZ,1680213578
315,narsaq,60.9167,-46.05,-10.43,81,0,1.79,GL,1680213579
316,porbandar,21.6422,69.6093,23.78,76,0,3.93,IN,1680213579
317,yumen,40.2833,97.2,8.21,16,1,5.86,CN,1680213579
318,opuwo,-18.0607,13.84,21.67,41,86,2.35,NA,1680213579
319,bay roberts,47.5999,-53.2648,0.86,75,70,0.45,CA,1680213579
320,south charleston,38.3684,-81.6996,17.77,28,20,2.57,US,1680213579
321,marawi,7.9986,124.2928,20.34,94,92,0.87,PH,1680213579
322,kota belud,6.351,116.4305,24.1,87,100,1.49,MY,1680213579
323,champerico,14.3,-91.9167,33.3,59,8,5.38,GT,1680213580
324,xichang,27.8964,102.2634,11.02,84,58,0.83,CN,1680213581
325,praia,14.9215,-23.5087,23.3,73,0,4.12,CV,1680213581
326,pokosnoye,55.5258,101.0536,-6.33,80,100,6.33,RU,1680213581
327,whitianga,-36.8333,175.7,16.32,61,8,1.37,NZ,1680213581
328,broken hill,-31.95,141.4333,15.87,55,100,3.56,AU,1680213581
329,coahuayana,18.7333,-103.6833,30.84,34,100,3.02,MX,1680213581
330,challans,46.8436,-1.8749,13.11,92,100,8.05,FR,1680213582
331,paamiut,61.994,-49.6678,-8.19,78,9,5.78,GL,1680213582
332,ponta delgada,37.7333,-25.6667,16.4,100,75,4.12,PT,1680213582
333,port augusta,-32.5,137.7667,17.09,69,100,2.48,AU,1680213582
334,zhezkazgan,47.8043,67.7144,1.63,58,22,9.31,KZ,1680213582
335,gari,59.4307,62.3497,-4.15,86,17,3.97,RU,1680213582
336,khandyga,62.6667,135.6,-0.34,94,100,6.92,RU,1680213582
337,cascais,38.6979,-9.4215,17.19,94,75,5.81,PT,1680213515
338,severo-kurilsk,50.6789,156.125,1.25,70,4,1.94,RU,1680213582
339,banjar,-8.19,114.9675,24.88,88,100,2.5,ID,1680213583
340,kargil,34.5667,76.1,-4.88,77,100,0.94,IN,1680213583
341,vostok,46.4856,135.8833,-1.41,69,17,1.63,RU,1680213583
342,bassila,9.0081,1.6654,29.35,39,93,1.88,BJ,1680213583
343,seymchan,62.8833,152.4333,-9.37,85,82,3.39,RU,1680213583
344,hobyo,5.3505,48.5268,27.82,75,28,4.24,SO,1680213583
345,saint-denis,48.9167,2.3333,13.09,85,75,8.23,FR,1680213583
346,soyo,-6.1349,12.3689,26.71,79,100,1.4,AO,1680213584
347,manggar,-2.8833,108.2667,23.49,93,100,4.05,ID,1680213584
348,savannah bight,16.45,-85.85,26.41,79,4,9.19,HN,1680213584
349,independence,39.0911,-94.4155,19.92,53,100,9.26,US,1680213338
350,ostrovnoy,68.0531,39.5131,-9.49,91,57,6.5,RU,1680213584
351,sao joao da barra,-21.6403,-41.0511,28.05,81,99,6.41,BR,1680213584
352,port blair,11.6667,92.75,26.01,80,37,1.57,IN,1680213584
353,the valley,18.217,-63.0578,27.08,69,40,6.17,AI,1680213584
354,shubarshi,48.5872,57.1869,11.92,61,97,9.68,KZ,1680213584
355,lardos,36.0942,28.0157,13.9,50,1,5.72,GR,1680213585
356,erzin,36.9559,36.2,3.59,44,42,1.65,TR,1680213585
357,maxixe,-23.8597,35.3472,21.8,85,7,1.7,MZ,1680213585
358,poum,-20.2333,164.0167,27.13,74,50,6.65,NC,1680213573
359,neiafu,-18.65,-173.9833,28.38,78,40,4.12,TO,1680213585
360,a coruna,43.3713,-8.396,16.4,76,20,6.17,ES,1680213585
361,huangmei,30.1924,116.025,12.1,90,61,2.16,CN,1680213586
362,chapada dos guimaraes,-15.4606,-55.7497,22.81,67,47,1.92,BR,1680213586
363,lazarev,52.225,141.5131,-0.8,94,98,2.81,RU,1680213570
364,upernavik,72.7868,-56.1549,-28.11,93,37,2.93,GL,1680213586
365,aden,12.7794,45.0367,27.61,82,98,6.78,YE,1680213586
366,namibe,-15.1961,12.1522,23.28,81,96,2.1,AO,1680213586
367,launceston,-41.45,147.1667,13.78,87,100,2.57,AU,1680213586
368,celestun,20.8667,-90.4,28.95,61,0,7.32,MX,1680213586
369,navahrudak,53.6,25.8333,3.17,88,100,3.4,BY,1680213587
370,matamoros,25.5333,-103.25,32.84,10,100,2.86,MX,1680213474
371,hualmay,-11.0964,-77.6139,25.74,76,69,4.69,PE,1680213587
372,haines junction,60.7522,-137.5108,-2.03,59,100,1.03,CA,1680213555
373,vaitape,-16.5167,-151.75,27.94,73,100,4.52,PF,1680213587
374,taoudenni,22.6783,-3.9836,28.39,9,0,7.44,ML,1680213587
375,teya,60.3778,92.6267,-15.02,96,100,1.86,RU,1680213587
376,nipawin,53.3668,-104.0009,-3.98,58,0,2.06,CA,1680213587
377,grivenskaya,45.6473,38.176,3.47,63,100,7.59,RU,1680213587
378,orange cove,36.6244,-119.3137,14.89,90,100,3.6,US,1680213587
379,goderich,43.7501,-81.7165,3.28,41,7,5.66,CA,1680213587
380,beyneu,45.3167,55.2,12.33,64,22,6.87,KZ,1680213587
381,olafsvik,64.8945,-23.7142,2.86,81,72,5.99,IS,1680213588
382,nome,64.5011,-165.4064,1.2,90,100,0.82,US,1680213588
383,saint-augustin,51.226,-58.6502,-0.84,84,80,3.26,CA,1680213588
384,de-kastri,51.4667,140.7833,-0.8,93,98,1.7,RU,1680213588
385,borba,-4.3878,-59.5939,23.51,99,100,1.11,BR,1680213588
386,geraldton,-28.7667,114.6,18.23,94,40,3.09,AU,1680213588
387,aguimes,27.9054,-15.4461,27.35,20,0,7.72,ES,1680213588
388,sisimiut,66.9395,-53.6735,-14.68,80,1,4.01,GL,1680213588
389,vanavara,60.34,102.2797,-23.9,100,63,1.09,RU,1680213589
390,gat,31.61,34.7642,12.38,100,44,6.28,IL,1680213589
391,aksu,41.1231,80.2644,13.4,20,77,1.48,CN,1680213589
392,palmer,42.1584,-72.3287,4.8,27,20,6.17,US,1680213539
393,samana,19.2056,-69.3369,30.12,62,20,5.14,DO,1680213589
394,bengkulu,-3.8004,102.2655,22.98,88,100,1.72,ID,1680213589
395,ambovombe,-25.1667,46.0833,22.17,91,27,2.25,MG,1680213589
396,ankang,32.68,109.0172,13.38,60,83,1.4,CN,1680213589
397,burns lake,54.2331,-125.7533,7.68,71,85,2.48,CA,1680213589
398,batagay-alyta,67.8006,130.4114,-19.68,98,100,1.99,RU,1680213589
399,camacha,33.0833,-16.3333,18.68,60,0,2.06,PT,1680213589
400,uhlove,44.8215,33.6045,3.96,64,93,4.1,UA,1680213590
401,aykhal,66.0,111.5,-23.57,99,100,3.81,RU,1680213590
402,klyuchi,52.2667,79.1667,-3.43,65,6,3.6,RU,1680213590
403,carutapera,-1.195,-46.02,25.27,88,94,2.87,BR,1680213590
404,saldanha,-33.0117,17.9442,16.03,82,36,9.69,ZA,1680213541
405,sayyan,15.1718,44.3244,13.67,76,91,1.09,YE,1680213590
406,balaipungut,1.05,101.2833,22.74,96,91,0.34,ID,1680213590
407,nizhnevartovsk,60.9344,76.5531,-11.99,72,0,3.13,RU,1680213590
408,tezu,27.9167,96.1667,16.65,57,26,1.98,IN,1680213591
409,ilovlya,49.3033,43.9796,2.0,73,96,9.77,RU,1680213591
410,asau,46.4333,26.4,2.51,62,82,2.86,RO,1680213591
411,sao filipe,14.8961,-24.4956,23.67,76,28,2.35,CV,1680213591
412,inverell,-29.7833,151.1167,12.59,89,99,1.46,AU,1680213591
413,puerto escondido,15.85,-97.0667,29.99,59,16,3.09,MX,1680213591
414,tarascon,43.8058,4.6603,12.57,92,100,1.6,FR,1680213566
415,sheopur,25.6667,76.7,21.61,59,78,2.59,IN,1680213591
416,macau,22.2006,113.5461,20.89,94,40,4.12,MO,1680213591
417,san cristobal,7.7669,-72.225,25.1,59,51,1.66,VE,1680213591
418,punta cardon,11.6581,-70.215,26.27,71,1,14.26,VE,1680213591
419,vila do maio,15.1333,-23.2167,23.44,81,17,5.36,CV,1680213592
420,borgarnes,64.5383,-21.9206,6.03,87,82,3.42,IS,1680213592
421,aberdeen,57.1437,-2.0981,9.25,90,13,2.57,GB,1680213592
422,labuan,5.2767,115.2417,24.2,94,20,0.0,MY,1680213592
423,varhaug,58.6147,5.6457,3.83,92,100,0.68,NO,1680213592
424,ust-maya,60.4167,134.5333,-0.79,94,100,3.16,RU,1680213592
425,yafran,32.0633,12.5286,15.64,37,0,2.94,LY,1680213593
426,jalingo,8.8833,11.3667,29.78,14,70,1.67,NG,1680213593
427,wuxue,29.8506,115.5525,11.99,92,66,2.19,CN,1680213593
428,tura,25.5198,90.2201,17.97,83,14,1.34,IN,1680213593
429,yantal,56.8471,105.2542,-6.84,94,100,4.37,RU,1680213593
430,baghmara,23.795,86.2085,28.79,40,94,2.42,IN,1680213593
431,san rafael del sur,11.8485,-86.4384,31.54,42,27,8.83,NI,1680213593
432,north bend,43.4065,-124.2243,11.07,76,100,3.6,US,1680213594
433,point fortin,10.1833,-61.6833,27.72,72,87,6.45,TT,1680213594
434,nukus,42.4531,59.6103,15.99,36,0,2.06,UZ,1680213594
435,contamana,-7.3333,-75.0167,25.31,93,98,1.68,PE,1680213594
436,nizwa,22.9333,57.5333,21.71,35,0,2.03,OM,1680213594
437,livramento,-3.0254,-60.1803,28.38,78,20,4.63,BR,1680213594
438,vengerovo,55.6848,76.7471,-10.26,92,7,3.26,RU,1680213594
439,ayan,56.45,138.1667,-6.5,89,96,2.2,RU,1680213594
440,neryungri,56.6709,124.6491,-8.72,97,97,2.14,RU,1680213594
441,doha,25.2867,51.5333,22.99,52,0,1.03,QA,1680213440
442,puerto suarez,-18.95,-57.8,30.31,70,20,2.06,BO,1680213594
443,amalapuram,16.5833,82.0167,24.6,85,29,1.82,IN,1680213595
444,luanda,-8.8368,13.2343,27.0,83,75,2.57,AO,1680213537
445,ivankiv,50.9386,29.8943,-1.55,90,42,2.36,UA,1680213595
446,tual,-5.6667,132.75,28.28,75,100,3.88,ID,1680213595
447,liverpool,53.4106,-2.9779,11.47,86,75,4.63,GB,1680213390
448,grand gaube,-20.0064,57.6608,27.22,79,17,1.79,MU,1680213595
449,guerrero negro,27.9769,-114.0611,17.06,46,5,8.61,MX,1680213595
450,ahipara,-35.1667,173.1667,17.5,56,12,3.47,NZ,1680213595
451,makokou,0.5738,12.8642,20.21,99,95,1.1,GA,1680213595
452,sungaipenuh,-2.0833,101.3833,17.33,90,100,0.52,ID,1680213595
453,mandalgovi,45.7625,106.2708,4.53,31,62,6.79,MN,1680213595
454,ballina,-28.8667,153.5667,18.77,59,17,2.76,AU,1680213462
455,konevo,62.1215,39.3192,-6.13,96,84,1.63,RU,1680213595
456,proletariy,58.4342,31.7046,-3.31,91,89,2.56,RU,1680213596
457,kirksville,40.1948,-92.5833,18.97,45,100,9.26,US,1680213596
458,barvinkove,48.9097,37.0205,3.06,73,100,8.36,UA,1680213596
459,pryazha,61.6926,33.6216,-6.43,95,36,1.32,RU,1680213596
460,belmonte,-15.8631,-38.8828,25.08,75,0,3.26,BR,1680213596
461,hofn,64.2539,-15.2082,6.92,96,100,8.79,IS,1680213596
462,pyapon,16.2833,95.6833,23.32,84,27,3.8,MM,1680213597
463,otane,-39.8833,176.6333,17.78,59,39,0.52,NZ,1680213597
464,penzance,50.1186,-5.5371,11.38,88,100,18.99,GB,1680213597
465,tulsipur,28.131,82.2973,19.31,30,58,2.76,NP,1680213550
466,bowen,-20.0167,148.2333,27.43,75,37,3.68,AU,1680213597
467,takhtamygda,54.1,123.5667,-6.39,96,90,1.33,RU,1680213597
468,visby,57.6409,18.296,1.13,93,100,5.66,SE,1680213597
469,kilindoni,-7.9139,39.6668,27.43,77,12,2.72,TZ,1680213597
470,sandpoint,48.2766,-116.5533,12.08,32,40,3.09,US,1680213532
471,piacabucu,-10.4056,-36.4344,25.69,80,10,4.0,BR,1680213597
472,swift current,50.2834,-107.8014,-0.55,69,0,5.14,CA,1680213597
473,warrnambool,-38.3833,142.4833,13.52,75,100,4.89,AU,1680213311
474,antalaha,-14.9003,50.2788,24.22,89,73,2.92,MG,1680213597
475,show low,34.2542,-110.0298,1.71,84,100,13.38,US,1680213598
476,mora,11.0461,14.1401,28.27,12,21,2.84,CM,1680213598
477,maldonado,-34.6667,-54.9167,19.66,84,99,3.4,UY,1680213598
478,huntsville,34.7304,-86.5861,23.14,24,0,2.68,US,1680213433
479,calatrava,10.595,123.4838,25.92,82,84,2.07,PH,1680213598
480,ketchikan,55.3422,-131.6461,5.99,79,98,2.97,US,1680213598
481,mehamn,71.0357,27.8492,-4.03,100,75,3.09,NO,1680213598
482,huilong,31.8111,121.655,11.63,79,98,2.32,CN,1680213599
483,salamiyah,35.0113,37.0532,5.08,59,20,4.33,SY,1680213599
484,tilichiki,60.4667,166.1,-9.43,92,93,0.71,RU,1680213543
485,ust-nera,64.5667,143.2,-4.88,87,100,2.46,RU,1680213599
486,boca do acre,-8.7522,-67.3978,27.06,86,92,0.63,BR,1680213599
487,atambua,-9.1061,124.8925,22.19,90,99,1.86,ID,1680213599
488,sal rei,16.1833,-22.9167,22.35,82,73,4.86,CV,1680213600
489,los llanos de aridane,28.6585,-17.9182,24.86,17,0,5.66,ES,1680213600
490,havre-saint-pierre,50.2334,-63.5986,0.0,93,100,6.69,CA,1680213596
491,nagyatad,46.2296,17.3579,11.26,74,90,5.78,HU,1680213600
492,portland,45.5234,-122.6762,13.67,66,75,4.02,US,1680213492
493,paita,-5.0892,-81.1144,27.31,77,11,3.57,PE,1680213600
494,kaoma,-14.7833,24.8,21.17,68,90,1.64,ZM,1680213602
495,saint-leu,-21.15,55.2833,25.48,95,88,1.35,RE,1680213603
496,lang son,21.8333,106.7333,17.83,92,100,0.95,VN,1680213604
497,black river,18.0264,-77.8487,26.95,67,84,1.7,JM,1680213605
498,nantucket,41.2835,-70.0995,6.08,43,75,4.63,US,1680213309
499,sete,43.4018,3.6966,12.92,89,77,0.91,FR,1680213611
500,alabaster,33.2443,-86.8164,24.38,25,0,2.57,US,1680213368
501,bubaque,11.2833,-15.8333,25.31,73,3,7.65,GW,1680213593
502,zambezi,-13.5432,23.1047,20.09,86,90,1.57,ZM,1680213632
503,sibolga,1.7427,98.7792,23.55,83,100,1.36,ID,1680213634
504,tabou,4.423,-7.3528,25.35,90,100,1.23,CI,1680213635
505,anadyr,64.75,177.4833,-13.72,84,20,5.81,RU,1680213635
506,caruray,10.3094,119.0128,26.95,81,100,3.27,PH,1680213635
507,marovoay,-16.1,46.6333,25.05,88,100,2.43,MG,1680213636
508,kirakira,-10.4544,161.9205,27.64,75,100,1.25,SB,1680213636
509,verkh-chebula,56.0308,87.6218,-8.69,92,98,4.86,RU,1680213636
510,clearwater,27.9659,-82.8001,29.98,58,0,7.15,US,1680213626
511,miranda,3.2499,-76.2281,30.07,77,99,0.22,CO,1680213612
512,namatanai,-3.6667,152.4333,26.58,77,100,2.06,PG,1680213637
513,vanimo,-2.6741,141.3028,27.47,74,100,2.38,PG,1680213637
514,takoradi,4.8845,-1.7554,25.83,84,100,1.6,GH,1680213637
515,tirumullaivasal,11.2333,79.8333,23.37,82,5,2.98,IN,1680213638
516,develi,38.3906,35.4922,-4.36,68,2,2.23,TR,1680213638
517,grand island,40.925,-98.342,23.34,49,100,3.58,US,1680213638
518,morehead,37.2711,-87.1764,20.86,23,0,4.12,US,1680213638
519,tynda,55.1667,124.7167,-9.94,96,100,1.23,RU,1680213638
520,wewak,-3.5534,143.6268,24.72,92,100,1.54,PG,1680213638
521,sitka,57.0531,-135.33,2.38,94,100,1.33,US,1680213638
522,svetlogorsk,52.6333,29.7333,-2.35,94,24,2.75,BY,1680213639
523,xinxiang,35.3089,113.8672,11.84,78,100,0.96,CN,1680213639
524,harper,4.375,-7.7169,25.31,90,99,1.36,LR,1680213639
525,zapolyarnyy,69.4154,30.8136,-10.4,93,78,4.53,RU,1680213639
526,imeni poliny osipenko,52.4201,136.4853,-4.65,81,5,1.19,RU,1680213639
527,inirida,3.8653,-67.9239,28.52,75,65,0.95,CO,1680213639
528,sun valley,39.5963,-119.776,10.38,43,40,7.2,US,1680213640
529,nedjo,9.5046,35.5019,21.67,16,99,1.84,ET,1680213640
530,vestmanna,62.1564,-7.1664,7.51,100,100,6.69,FO,1680213640
531,kahului,20.8947,-156.47,29.01,68,40,4.63,US,1680213640
532,oksfjord,70.2396,22.3479,1.1,99,100,8.16,NO,1680213640
533,caravelas,-17.7125,-39.2481,25.73,77,12,3.86,BR,1680213640
534,merauke,-8.4667,140.3333,24.73,93,72,1.21,ID,1680213640
535,diego de almagro,-26.3667,-70.05,20.77,47,0,2.96,CL,1680213640
536,samarai,-10.6167,150.6667,27.93,78,82,0.55,PG,1680213640
537,whyalla,-33.0333,137.5833,16.36,70,100,3.4,AU,1680213641
538,tucuman,-26.8241,-65.2226,25.0,65,75,0.51,AR,1680213584
539,keti bandar,24.1447,67.4497,24.46,79,4,6.58,PK,1680213641
540,ilhabela,-23.7781,-45.3581,24.3,94,95,1.15,BR,1680213641
541,baykit,61.67,96.37,-25.24,100,96,1.78,RU,1680213642
542,kankaanpaa,61.8,22.4167,-10.58,97,10,1.21,FI,1680213642
543,riyadh,24.6877,46.7219,22.08,23,86,6.32,SA,1680213537
544,monte azul,-15.155,-42.8747,28.13,35,100,1.87,BR,1680213642
545,ihosy,-22.4,46.1167,19.74,93,6,1.5,MG,1680213642
546,brae,60.3964,-1.353,7.3,91,99,5.52,GB,1680213642
547,luwero,0.8492,32.4731,18.59,89,95,0.72,UG,1680213642
548,ekhabi,53.5102,142.9671,-1.66,97,100,4.14,RU,1680213642
549,hay river,60.8156,-115.7999,-11.02,61,75,7.72,CA,1680213437
550,hami,42.8,93.45,10.68,21,25,2.53,CN,1680213643
551,almaznyy,48.0448,40.045,-0.47,96,100,12.01,RU,1680213643
552,alta floresta,-9.8756,-56.0861,24.2,89,97,1.62,BR,1680213593
553,kamina,-8.7386,24.9906,18.15,97,100,3.1,CD,1680213643
554,lander,42.833,-108.7307,4.22,69,100,2.49,US,1680213643
555,malpe,13.35,74.7167,24.61,69,82,2.61,IN,1680213643
556,alcaniz,41.05,-0.1333,18.0,32,100,5.22,ES,1680213643
557,eenhana,-17.4667,16.3333,23.8,55,81,1.33,NA,1680213643
558,shimoda,34.6667,138.95,11.72,69,100,0.83,JP,1680213643
559,muhlhausen,51.2167,10.45,10.41,94,32,5.02,DE,1680213643
560,catabola,-12.15,17.2833,15.9,96,100,1.68,AO,1680213644
561,strezhevoy,60.7333,77.5889,-14.75,98,97,3.79,RU,1680213644
562,shingu,33.7333,135.9833,11.78,66,100,0.9,JP,1680213644
563,hanstholm,57.1167,8.6167,4.61,98,100,11.74,DK,1680213644
564,isla vista,34.4133,-119.861,15.2,74,75,4.12,US,1680213644
565,nadvoitsy,63.8667,34.3167,-11.26,95,28,2.48,RU,1680213644
566,marzuq,14.4,46.4667,22.96,60,94,7.5,YE,1680213644
